id,name,address,latitude,longitude
1225718, Woolworths Northlands,"cnr Main North & Sawyers Arms Roads,Northlands Click and Collect,8051,Northlands Click and Collect",-43.4917,172.6116
4251868,Whangaruru,"Whangarei Retail Centre Okara Drive,Whangarei,Whangaruru,110,Whangaruru",,
4472132,Whangaruru – Ngaiotonga Marae,"Okara Drive, Retail Centre, Whangarei,Whangaruru – Ngaiotonga Marae,0110,Whangaruru – Ngaiotonga Marae",,
3496448,Woolworths Alexandra,"106 Centennial Avenue,Alexandra,Alexandra Pickup,Alexandra Pickup ",-45.2491,169.3853
861615,Woolworths Amberley,"Cnr Carters and Amberley Beach Roads,Amberley Click and Collect ,7410,Amberley Click and Collect",-43.1569,172.7301
2810973,Woolworths Andersons Bay,"560 Andersons Bay Road, South Dunedin,Andy Bay Click and Collect,9012,Andy Bay Click and Collect",-45.8967,170.5092
1050811,Woolworths Aotea,"3 Whitford Brown Ave,Papakowhai,Aotea Click and Collect ,Wellington AO",-41.1202,174.8668
1155526,Woolworths Ashburton  ,"Cnr East and Peter Streets,Ashburton,Ashburton Click and Collect,Ashburton Click and Collect",-43.902,171.7519
1155560,Woolworths Ashburton South,"Cnr South St and East St,Ashburton,Ashburton South Click Collect,Ashburton South Click Collect",-43.9085,171.7418
1189112,Woolworths Auckland Airport,"George Bolt Memorial & John Goulter Dr,Mangere,AKL Airport CC,2022,AKL Airport Click and Collect",-36.9976,174.789
1906035,Woolworths Auckland Quay Street,"76 Quay Street,Auckland City,Auckland City Click & Collect,Auckland City Click & Collect",-36.845,174.773
2447192,Woolworths Avonhead,"Cnr Withells Road & Merrin Street,Avonhead Click and Collect,8042,Avonhead Click and Collect",-43.5112,172.5573
3175333,Woolworths Awapuni,"530 Pioneer Highway,Awapuni Click and Collect,4412,Awapuni Click and Collect",-40.3703,175.5804
3274314,Woolworths Balclutha,"8-12 Charles Streets,Balclutha Pickup,9230,Balclutha Pickup",-46.2369,169.7408
1497678,Woolworths Bayfair,"1-19 Girven Road,Mt Manganui,Bayfair Click and Collect,Bayfair Click and Collect",-37.6757,176.2241
1109324,Woolworths Beachlands,"129 Beachlands Road,Beachlands Click and Collect,Beachlands Click and Collect",-36.8898,175.0083
3385698,Woolworths Belfast,"755 Main North Road,Belfast Pickup,Belfast Pickup",-43.4483,172.6297
1222024,Woolworths Bethlehem,"19 Bethlehem Road,Bethlehem Click and Collect,3110,Bethlehem Click and Collect",-37.6947,176.1088
2124460,Woolworths Birkenhead,"Cnr Highbury Pass & Birkenhead Avenue,Auckland,Birkenhead Click and Collect,Birkenhead Click and Collect",-36.8113,174.7248
950553,Woolworths Blenheim,"51 Seymour St,Blenheim ,Blenheim Click and Collect,7201,Blenheim Click and Collect",-41.5136,173.9543
1225547,Woolworths Botany,"cnr Te Irirangi & Ti Rakau Drives,Botany Downs CC,2010,Botany Downs Click and Collect",-36.9299,174.9112
1207646,Woolworths Bridge St,"Cnr Bridge St and Anglesea St,Bridge St Click and Collect,Bridge St Click and Collect",-37.7934,175.2863
1226867,Woolworths Broadway,"Main Street,Broadway Click and Collect,4471,Broadway Click and Collect",-40.35,175.6238
2683184,Woolworths Browns Bay,"Cnr Anzac & Clyde Road,Browns Bay Click and Collect,0630,Browns Bay Click and Collect",-36.7175,174.7474
1175393,Woolworths Bureta Park,"40-50 Bureta Road,Otumoetai,Bureta Park Click and Collect,    ,Bureta Park Click and Collect",-37.6683,176.1533
1332617,Woolworths Cambridge,"Cnr Queen & Empire Streets,Cambridge,Cambridge Click and Collect,Cambridge Click and Collect",-37.8923,175.4702
2770176,Woolworths Carlyle,"36 Carlyle Street, Napier South,Carlyle Click and Collect,4110,Carlyle Click and Collect",-39.4928,176.9113
1203274,Woolworths Christchurch Airport,"530 - 546A Memorial Ave,Christchurch,Chch Airport Click and Collect,Chch Airport Click and Collect",-43.4899,172.5477
1188758,Woolworths Church Corner,"Cnr Riccarton Rd & Hansons Lane,Christchurch,Church Cnr Click and Collect,8041,Church Cnr Click and Collect",-43.5327,172.573
904435,Woolworths Claudelands,"160 Peach Grove Road,Hamilton East,Claudelands Click and Collect,Claudelands Click and Collect",-37.7785,175.299
1188761,Woolworths Colombo St,"219 Colombo St,Christchurch,Colombo St Click and Collect,8023,Colombo St Click and Collect",-43.5533,172.6356
2683237,Woolworths Dargaville,"Dargaville Plaza, Victoria Street,Dargaville Click and Collect,0310,Dargaville Click and Collect",-35.9394,173.8729
1060362,Woolworths Dinsdale,"47 Whatawhata Rd,Hamilton,Dinsdale Click and Collect,Dinsdale Click and Collect",-37.7964,175.2454
1226961,Woolworths Dunedin Central,"309 Cumberland Street,Dunedn Cntrl Pickup,9016,Dunedin Cnt Click and Collect",-45.8742,170.5064
2791790,Woolworths Dunedin South,"323 Andersons Bay Road, South Dunedin,Dunedin S Click and Collect,9012,Dunedin S Click and Collect",-45.8926,170.5027
2810806,Woolworths Eastgate,"6 Buckleys Road, Linwood, Christchurch,Eastgate Click and Collect,8062,Eastgate Click and Collect",-43.5323,172.6297
904436,Woolworths Fairy Springs,"54 Fairy Springs Road,FairySprings Click and Collect,FairySprings Click and Collect",-38.1201,176.228
1155534,Woolworths Feilding,"Cnr Kimbolton and Weld Streets,Feilding,Feilding Click and Collect,Feilding Click and Collect",-40.2252,175.5686
2176651,Woolworths Ferrymead,"999 Ferry Road,Christchurch,Ferrymead Click and Collect,Ferrymead Click and Collect",-43.5569,172.7023
4466375,Woolworths Flaxmere,"4 Swansea Road,Flaxmere Pick Up,4120,Flaxmere Pick Up",,
1225707,Woolworths Fraser Cove,"Fraser Cove Shopping Centre,229-233 Fraser Street,Fraser Cove Click and Collect,3112,Fraser Cove Click and Collect",-37.7141,176.1513
2768257,Woolworths Gisborne,"Carnarvon Street, Gladstone Road,Gisborne Click and Collect,4010,Gisborne Click and Collect",-38.6619,178.0182
1190273,Woolworths Glenfield,"Cnr Bentley Ave & Glenfield Rd,Glenfield,Glenfield Click and Collect,0629,Glenfield Click and Collect",-36.7818,174.7229
2810884,Woolworths Gore,"24 Medway Street, East Gore,Gore Click and Collect,9710,Gore Click and Collect",-46.0985,168.9441
577581,Woolworths Greenlane,"326 Great South Road,Greenlane,Greenlane Click and Collect,1051,Auckland GN",-36.8893,174.7937
3105636,Woolworths Greville Road,"Greville Road,Greville Rd Click and Collect,Greville Rd Click and Collect",-36.7309,174.7222
1906063,Woolworths Grey Lynn,"271 Richmond Road,Grey Lynn,Grey Lynn Click & Collect,Grey Lynn Click and Collect",-36.8546,174.7318
764300,Woolworths Greymouth,"174 Mawhera Quay,Greymouth Click & Collect,7805,Greymouth",-42.4487,171.2141
2673966,Woolworths Hamilton,"Cnr Anglesea & Liverpool Streets,Hamilton Click and Collect,3204,Hamilton Click and Collect",-37.7813,175.2734
2942598,Woolworths Hastings Central,"301 Queen Street West,Hastings Cnt Click and Collect,4122,Hastings Cnt Click and Collect",-39.6388,176.8421
951739,Woolworths Hawera,"Cnr Union & Nelson Streets,Hawera,Hawera Click and Collect,4610,Hawera Click and Collect",-39.5874,174.2823
870058,Woolworths Helensville,"43 Commercial Road,Helensville Click and Collect,0800,Helensville Click and Collect ",-36.6772,174.4506
1230712,Woolworths Henderson,"West City Mall, Catherine St,Henderson,Henderson Click and Collect,0612,Henderson Click and Collect",-36.8808,174.6328
1224920,Woolworths Highland Park,"507 Pakuranga Highway,Highland Park CC,2010,Highland Park Click & Collect",-36.8995,174.9082
1223854,Woolworths Hobsonville,"124 Hobsonville Road,Hobsonville Click Collect,0618,Hobsonville Click and Collect",-36.7974,174.6474
1352617,Woolworths Hornby,"Cnr Main Sth Rd & Chappie Place,Hornby Click and Collect,Hornby Click and Collect",-43.5428,172.527
1237277,Woolworths Howick,"35 Cook St,Howick Click and Collect,2014,Howick Click and Collect",-36.8959,174.9328
933798,Woolworths Huntly,"16/18 Tumate Mahuta Dr,Huntly Click and Collect ,Huntly Click and Collect ",-37.5641,175.1585
1799246,Woolworths Invercargill,"172 Tay Street,Invercargill,Invercargill Click and Collect,Invercargill Click and Collect",-46.4122,168.3582
1646608,Woolworths Johnsonville	,"31 Johnsonville Road,Johnsonville Click & Collect,Johnsonville Click and Collect",-41.2241,174.808
1225688,Woolworths Kaiapoi,"87-97 Hilton Street,Kaiapoi Click and Collect,7630,Kaiapoi Click and Collect",-43.3854,172.658
1230169,Woolworths Karori,"Shopping Centre, Main Rd,Karori,Karori Click and Collect,6147,Karori Click and Collect",-41.2843,174.7386
913420,Woolworths Katikati,"123-131 Main Road,Katikati Click and Collect,3129,Katikati Click and Collect",-37.5597,175.9158
1237272,Woolworths Kelston,"Cnr Great North Rd & West Coast Rd	,Kelston Click and Collect,0602,Kelston Click and Collect",-36.9096,174.6635
1093410,Woolworths Kelvin Grove,"7 Fernlea Ave,Kelvin Grove,Kelvin Grove Click and Collect,Kelvin Grove Click and Collect",-40.3301,175.6534
2673967,Woolworths Kerikeri,"Cnr Butler & Kerikeri Rds,Kerikeri Click and Collect,0230,Kerikeri Click and Collect",-35.2291,173.9459
2810998,Woolworths Kilbirnie,"47 Bay Road, Kilbirnie,Kilbirnie Click and Collect,6022,Kilbirnie Click and Collect",-41.3195,174.7946
2770183,Woolworths Levin,"Cnr Bristol &, Stanley Street,Levin Click and Collect,5510,Levin Click and Collect",-40.6203,175.2868
2749937,Woolworths Lower Hutt,"261 High Street, Hutt Central,Lower Hutt Click and Collect,5010,Lower Hutt Click and Collect",-41.2074,174.9059
1225554,Woolworths Lynfield,"570 Hillsborough Road,Lynfield Click and Collect,1041,Lynfield Click and Collect",-36.9256,174.7231
1225559,Woolworths Lynnmall ,"Lynnmall Shopping Centre,Great North Road,Lynnmall Click and Collect,0600,Lynnmall Click and Collect",-36.9073,174.6843
2655603,Woolworths Mailer Street,"43 Mailer Street,Mailer St Click and Collect,Mailer St Click and Collect",-45.881,170.4796
2373714,Woolworths Mairangi Bay,"3 Ramsgate Terrace,Mairangi Bay Click and Collect,0630,Mairangi Bay Click and Collect",-36.739,174.7526
1600626,Woolworths Mangere East,"359 Massey Road, Mangere East,Auckland,Mangere East Click and Collect,Mangere East Click and Collect",-36.9667,174.8251
1225677,Woolworths Manukau,"652 Great South Road,Manukau Click and Collect,2104,Manukau Click and Collect",-36.987,174.8838
1906083,Woolworths Manurewa,"227 Browns Road,Manurewa,Manurewa Click and Collect,Manurewa Click and Collect",-37.0177,174.8649
2729838,Woolworths Masterton,"Cnr Workshop & Queen Street,Masterton Click and Collect,5810,Masterton Click and Collect",-40.9525,175.6589
911335,Woolworths Matamata,"Cnr Arawa & Gouk Streets,Matamata,Matamata Click and Collect,3400,Matamata Click and Collect",-37.8088,175.774
1237264,Woolworths Meadowbank,"35-47 St Johns Rd,Meadowbank Click&Collect,1072,Meadowbank Click and Collect",-36.8759,174.8276
1906069,Woolworths Meadowlands,"Cnr Meadowlands Drive & Whitford Road,Howick,Meadowlands Click and Collect,Meadowlands Click and Collect",-36.9135,174.929
473644,Woolworths Milford,"143 Kitchener Road,Milford Click and Collect,Milford Click and Collect",-36.772,174.7661
1229208,Woolworths Moorhouse Ave,"347 Moorhouse Ave,Christchurch,Moorhouse Click and Collect,8011,Moorhouse Click and Collect",-43.5387,172.6417
1244356,Woolworths Morrinsville,"66 Studholme Street,Morrinsville Pick up,3300,Morrinsville Pick up",-37.6569,175.5276
2791816,Woolworths Mosgiel,"55 Gordon Road, Fairfield,Mosgiel Click and Collect,9024,Mosgiel Click and Collect",-45.8806,170.3519
1906076,Woolworths Mt Eden,"Cnr Valley & Dominion Roads,Mt Eden,Mt Eden Click & Collect,Mt Eden Click and Collect",-36.8773,174.7516
1906079,Woolworths Mt Roskill,"112 Stoddard Rd,Mt Roskill,Mt Roskill Click and Collect,Mt Roskill Click and Collect",-36.9042,174.727
1239981,Woolworths Mt Wellington,"Cnr Penrose Rd & Mt Wellington Highway,Mt Wgtn Click&Collect, ,Mt Wellington Click and Collec",-36.9094,174.8372
2442758,Woolworths Napier,"Cnr Munroe & Dickens Streets,Napier Click and Collect,4100,Napier Click and Collect",-39.4928,176.9138
1225552,Woolworths Nelson,"35 St Vincent Street,Nelson Click and Collect,7010,Nelson Click and Collect",-41.2727,173.2773
4166071,Woolworths Nelson Junction,"33 Cadillac Way,Annesbrook,Nelson Junction Pickup,7011,Nelson Junction Pickup",-41.2977069,173.241518
2621512,Woolworths New Brighton,"12 Hawke Street,New Brighton Click and Collect,8061,New Brighton Click and Collect",-43.5067,172.7298
840286,Woolworths New Plymouth Central	,"Cnr of Cameron & Leach Streets,New Plymouth Click and Collect,New Plymouth Click and Collect",-39.0564,174.0823
1768531,Woolworths Newmarket,"277 Broadway,Newmarket,Newmarket Click and Collect,Newmarket Click and Collect",-36.8719,174.7763
2449151,Woolworths Newtown,"3 John Street,Newtown Click and Collect,6021,Newtown Click and Collect",-41.3075,174.7771
2124747,Woolworths Northcote,"Pearn Crescent,Northcote Auckland,Northcote Click and Collect,Northcote Click and Collect",-36.8003,174.7448
1230704,Woolworths Northwest,"7 Fred Taylor Drive,Northwest Town Centre, Massy,OLDNorthwest Click and Collect,0614,Northwest Click and Collect",-36.8197,174.6113
1203129,Woolworths Oamaru,"116/108 Thames St,Oamaru Click Collect,9400,Oamaru Click Collect",-45.0971,170.9704
1225560,Woolworths Onehunga,"cnr Church & Selwyn Streets,Onehunga Click and Collect,1061,Onehunga Click and Collect",-36.9231,174.7832
1225662,Woolworths Orewa,"Moenui Avenue,Orewa Click and Collect,0931,Orewa Click and Collect",-36.5883,174.6961
2359781,Woolworths Otorohanga,"119-123 Maniapoto Street,Otorohanga Click and Collect,3900,Otorohanga Click and Collect",-38.19,175.2099
1475732,Woolworths Paeroa,"Paeroa,Paeroa Click and Collect,Paeroa Click and Collect",-37.3784,175.6681
1488544,Woolworths Pakuranga	,"Pakuranga Town Centre,Pakuranga,Pakuranga Click and Collect,Pakuranga Click and Collect",-36.913,174.8686
2686683,Woolworths Palmerston North,"Cnr Ferguson & Ashley Street,Palmerston N Click and Collect,4410,Palmerston N Click and Collect",-40.3578,175.615
1224936,Woolworths Papakura,"2 Averill Street,Papakura Click and Collect,2110,Papakura Click and Collect",-37.0636,174.9442
1478443,Woolworths Papamoa,"Papamoa Shopping Centre,Domain Road, Royal Palm Beach,Papamoa Click and Collect,3118,Papamoa Click and Collect",-37.699,176.2838
1225052,Woolworths Papatoetoe,"Hunters Plaza,217 Great South Road,Papatoetoe Click and Collect,2025,Papatoetoe Click and Collect",-36.971,174.8605
1123870,Woolworths Paraparaumu,"Coastlands Shopping Centre,Paraparaumu,Paraparaumu Click Collect,5032,Paraparaumu Click and Collect",-40.9174,175.0055
1228590,Woolworths Petone,"45 Jackson St	,Petone,Petone Click and Collect,5012,Petone Click and Collect",-41.2229,174.8722
2563753,Woolworths Pokeno,"Pokeno,Pokeno Click and Collect,2402,Pokeno Click and Collect",-37.2453,175.0225
1996677,Woolworths Ponsonby,"4 Williamson Avenue,Ponsonby,Ponsonby Click and Collect,Ponsonby Click and Collect",-36.8585,174.7489
882224,Woolworths Pt Chevalier,"13 Point Chevalier Road,Point Chevalier,Pt Chevalier Click & Collect,Auckland PtC",-36.8698,174.7102
2686431,Woolworths Pukekohe,"Cnr Tobin & Seddon Lane,Pukekohe Click and Collect,2120,Pukekohe Click and Collect",-37.1996,174.9022
1213289,Woolworths Pukekohe South,"186 - 192 Manukau Rd,Pukekohe,Pukekohe Sth ClC,2120,Pukekohe Sth Click and Collect",-37.2106,174.9113
946342,Woolworths Putaruru,"Tirau Street,Putaruru Click and Collect,3411,Putaruru Click and Collect",-38.0473,175.7806
1226949,Woolworths Queensgate,"35 Bloomfield Terrace,Queensgate,Queensgate Click and Collect,5010,Queensgate Click and Collect",-41.2104,174.908
2811065,Woolworths Queenstown,"30 Grant Road, Frankton,Queenstown Click and Collect,9371,Queenstown Click and Collect",-45.0136,168.7418
2811341,Woolworths Rangiora East,"40-54 Ivory Street, Rangiora,Rangiora East ClickandCollect,7400,Rangiora Est Click and Collect",-43.3074,172.5989
1230175,Woolworths Rangitikei Street,"Cnr Rangitikei & Featherstone sts,Rangitikei Click and Collect,4412,Rangitikei Click and Collect",-40.3503,175.6065
2811032,Woolworths Redwoodtown,"Cnr Weld St and, Alabama Road,Redwoodtown Click and Collect,7201,Redwoodtown Click and Collect",-41.5297,173.9552
727699,Woolworths Regent,"11 Kamo Road,Regent,Regent Click & Collect,Whangarei RG",-35.7146,174.3227
2723227,Woolworths Richmond,"Cnr Champion Rd and Salisbury Rd, Richmond,Richmond Click and Collect,7020,Richmond Click and Collect",-41.3342,173.2018
2741638,Woolworths Rolleston,"Cnr McCauley Street & Rolleston Drive,Rolleston,Rolleston Click and Collect,Rolleston Click and Collect",-43.594,172.3861
2313141,Woolworths Roselands,"Roselands Mall,cnr Great South and Subway Roads,Roselands Click and Collect,Roselands Click and Collect",-37.0589,174.9412
2768262,Woolworths Rotorua,"246 Fenton Street, Victoria,Rotorua Click and Collect,3010,Rotorua Click and Collect",-38.1427,176.254
1878751,Woolworths Rototuna,"3 Fergy Place,Rototuna North,Rototuna Click and Collect,Rototuna Click and Collect",-37.7232,175.2595
2673963,Woolworths Silverdale,"40 Hibiscus Coast Highway,Silverdale Click and Collect,0932,Silverdale Click and Collect",-36.6139,174.6807
1235353,Woolworths Spotswood,"Cnr Manadon St & South Rd,Spotswood Click and Collect,4310,Spotswood Click and Collect",-39.0759,174.0339
2367143,Woolworths Springlands,"133 Middle Renwick Road,Springlands Click and Collect,7201,Springlands Click and Collect",-41.5092,173.9351
1225694,Woolworths St James,"Cnr Hukunui & Thomas Rds,Rototuna,St James Click and Collect,3210,St James Click and Collect",-37.7322,175.2732
1906087,Woolworths St Johns,"134 - 144 Felton Mathew Avenue,St Johns,St Johns Click and Collect,St Johns Click and Collect",-36.8794,174.852
1225566,Woolworths St Lukes,"St Luke Shopping Centre,cnr St Lukes Road & Morningside Drive,St Lukes Click and Collect,1025,St Lukes Click and Collect",-36.8838,174.7342
2367135,Woolworths Stoke,"Cnr Putaitai Street,Stoke Click and Collect,7011,Stoke Click and Collect",-41.3117,173.2338
855866,Woolworths Stratford,"21A - 27 Broadway,State Highway 3,Stratford Click and Collect,4332,Stratford Click and Collect",-39.3272,174.2795
1231998,Woolworths Sunnynook,"Cnr Sycamore Dr & Sunnynook Rd,Sunnynook Click and Collect,0620,Sunnynook Click and Collect",-36.759,174.7408
480066,Woolworths Takanini,"228 Great South Rd,Takanini Click & Collect,Auckland TKN",-37.0476,174.9271
1229219,Woolworths Takapuna,"Barry's Point Rd,Takapuna Click and Collect,0622,Takapuna Click and Collect",-36.7913,174.7655
4141080,Woolworths Taupo Central,"Cnr Spa Rd And Tongariro St,Taupo Central Pick Up,3330,Taupo Central Pick Up",-38.6826,176.0713
3456126,Woolworths Taupo South,"Kokomea Village Centre Lake Terrace ,Taupo South Pickup,Taupo South Pickup",-38.722,176.0793
2682132,Woolworths Tauranga,"618 Cameron Road,Tauranga Click and Collect,3112,Tauranga Click and Collect",-37.7004,176.1577
565356,Woolworths Tawa,"3 Main Road,Tawa Click and Collect,5028,Wellington TW",-41.1865,174.8308
2373720,Woolworths Te Aroha,"85 Whitaker Street,Te Aroha Click and Collect,3320,Te Aroha Click and Collect",-37.545,175.7139
1232007,Woolworths Te Atatu South,"Cnr Edmonton & Te Atatu Rds,Te Atatu South,Te Atatu Sth Click and Collect,0610,Te Atatu Sth Click and Collect",-36.8657,174.6463
2791362,Woolworths Te Awamutu,"180 Sloane Street,Te Awamutu Click and Collect,3800,Te Awamutu Click and Collect",-38.0118,175.3259
913417,Woolworths Te Puke,"Queen St & Boucher Ave,Te Puke Click and Collect,3119,Te Puke Click and Collect",-37.7846,176.3251
1101675,Woolworths Te Rapa,"8 Eagle Way,Te Rapa,Te Rapa Click and Collect,Te Rapa Click and Collect",-37.7464,175.2343
1233474,Woolworths The Palms,"Marshlands Rd,The Palms Click and Collect,8061,The Palms Click and Collect",-43.5054,172.6643
2727190,Woolworths The Valley,"1 Vickers Road,Waiwhakaiho,The Valley Click and Collect,4312,The Valley Click and Collect",-39.0475,174.115
1740953,Woolworths Three Kings,"532 Mount Albert Road,Three Kings Click and Collect ,1042,Three Kings Click and Collect",-36.9093,174.7551
1225046,Woolworths Tikipunga,"cnr Paramount Parade & Wanaka Street,Tikipunga Click and Collect,0112,Tikipunga Click and Collect",-35.6832,174.321
2791733,Woolworths Timaru,"9 Browne Street, Parkside,Timaru Click and Collect,7910,Timaru Click and Collect",-44.4026,171.2539
3605672,Woolworths Timaru North,"233 Evans Street, SH1,Timaru North Click and Collect,7910,Timaru North Click and Collect",-44.3718,171.2423
942745,Woolworths Tokoroa,"12 - 20 O'Sullivan Drive,Tokoroa,Tokoroa Click and Collect,3420,Tokoroa Click and Collect",-38.222,175.8737
2810937,Woolworths Trafalgar Park,"Cnr Paruparu Rd &, Halifax Street, Nelson,TrafalgarPark ClickandCollect,7010,TrafalgarPrk Click and Collect",-41.2702,173.2815
1223959,Woolworths Upper Hutt,"13-19 Queen Street,Upper Hutt,Upper Hutt Click and Collect,5372,Upper Hutt Click and Collect",-41.1227,175.071
2373711,Woolworths Victoria Ave,"433 Victoria Avenue,Victoria Ave Click and Collect,4500,Victoria Ave Click and Collect",-39.925,175.0381
1600666,Woolworths Vogeltown,"30 Hori Street,New Plymouth,Vogeltown Click and Collect,Vogeltown Click and Collect",-39.0776,174.0829
3059814,Woolworths Waiata Shores,"2 Periko Way, ,Waiata Shore Click and Collect,2112,Waiata Shore Click and Collect",-37.036,174.9057
4156860,Woolworths Waiheke,"13/19 Belgium Street,Ostend,CD Waiheke Click and Collect,1081,Waiheke Click and Collect",-36.795,175.0459
2373716,Woolworths Waikanae,"Ngaio Road,Waikanae Click and Collect,5391,Waikanae Click and Collect",-40.8763,175.0652
1488549,Woolworths Waikiwi,"Cnr North Road & Durham Street,Waikiwi,Waikiwi Click and Collect,Waikiwi Click and Collect",-46.3751,168.3471
3838267,Woolworths Waimakariri Junction,"6 Hakarau Road,Waimak Junction,Waimak Click and Collect,Waimak Click and Collect",-43.3766,172.6481
1230110,Woolworths Wainuiomata,"18 The Strand,Wainuiomata,Wainui Click and Collect,5373,Wainuiomata Click and Collect",-41.2607,174.9437
951715,Woolworths Waipukurau,"Ruataniwha Street,Waipukurau Click and Collect,4210,Waipukurau Click and Collect",-39.9954,176.5576
1488276,Woolworths Waitangi,"9 Blackbridge Road,Paihia,Waitangi Click and Collect,Waitangi Click and Collect",-35.2792,174.0813
1716255,Woolworths Warkworth,"20-24 Neville Street,Warkworth,Warkworth Click and Collect,Warkworth Click and Collect",-36.3995,174.6643
592572,Woolworths Westgate,"Westgate Shopping Centre,Cnr Westgate & Fern Hill Drive Massey North,Westgate Click & Collect,0614,Auckland WG",-36.8209,174.6141
2768276,Woolworths Whakatane,"105/125 Commerce Street,Whakatane Click and Collect,3120,Whakatane Click and Collect",-37.9561,176.9949
2770231,Woolworths Whanganui,"Cnr Taupo Quay &, Wilson Street,Wanganui Click and Collect,4500,Wanganui Click and Collect",-39.9358,175.0532
1248095,Woolworths Whangaparaoa,"Cnr Whangaparaoa Rd & Wade Dr,Whangaparaoa Click and Collect,0943,Whangaparaoa Click and Collect",-36.6365,174.7466
2686464,Woolworths Whangarei,"Whangarei Retail Centre, Okara DriveCountdown Whangarei,Whangarei Click and Collect,0110,Whangarei Click and Collect",-35.7308,174.3273
2791350,Woolworths Whitianga,"24 Joan Gaskell Drive,Whitianga Click and Collect,3510,Whitianga Click and Collect",-36.8337,175.6944
